[{"description": "Africa, South Africa - Amazon Web Services: Cape Town", "name": "aws-af-south-1", "latitude": -33.92, "longitude": 18.42, "region": "africa", "provider": "aws"}, {"description": "Africa, South Africa - Azure: South Africa North", "name": "azure-south-africa-north", "latitude": -26.198, "longitude": 28.03, "region": "africa", "provider": "azure"}, {"description": "Asia, Bahrain - Amazon Web Services: Bahrain", "name": "aws-me-south-1", "latitude": 26.07, "longitude": 50.55, "region": "south asia", "provider": "aws"}, {"description": "Asia, Hong Kong - Amazon Web Services: Hong Kong", "name": "aws-ap-east-1", "latitude": 22.5, "longitude": 114.0, "region": "east asia", "provider": "aws"}, {"description": "Asia, Hong Kong - Azure: East Asia", "name": "azure-eastasia", "latitude": 22.5, "longitude": 114.0, "region": "southeast asia", "provider": "azure"}, {"description": "Asia, Hong Kong - Google Cloud: Hong Kong", "name": "google-asia-east2", "latitude": 22.5, "longitude": 114.0, "region": "east asia", "provider": "google"}, {"description": "Asia, India - Amazon Web Services: Mumbai", "name": "aws-ap-south-1", "latitude": 19.13, "longitude": 72.89, "region": "south asia", "provider": "aws"}, {"description": "Asia, India - Azure: Central India", "name": "azure-india-central", "latitude": 19.08, "longitude": 72.88, "region": "south asia", "provider": "azure"}, {"description": "Asia, India - Azure: South India", "name": "azure-india-south", "latitude": 13.08, "longitude": 80.27, "region": "south asia", "provider": "azure"}, {"description": "Asia, India - Azure: West India", "name": "azure-india-west", "latitude": 19.13, "longitude": 72.89, "region": "south asia", "provider": "azure"}, {"description": "Asia, India - DigitalOcean: Bangalore", "name": "do-blr", "latitude": 12.96, "longitude": 77.59, "region": "south asia", "provider": "do"}, {"description": "Asia, India - Google Cloud: Delhi", "name": "google-asia-south2", "latitude": 28.68, "longitude": 77.07, "region": "south asia", "provider": "google"}, {"description": "Asia, India - Google Cloud: Mumbai", "name": "google-asia-south1", "latitude": 19.08, "longitude": 72.88, "region": "south asia", "provider": "google"}, {"description": "Asia, Indonesia - Google Cloud: Jakarta", "name": "google-asia-southeast2", "latitude": 6.21, "longitude": 106.85, "region": "southeast asia", "provider": "google"}, {"description": "Asia, Japan - Amazon Web Services: Tokyo", "name": "aws-ap-northeast-1", "latitude": 35.68, "longitude": 139.68, "region": "east asia", "provider": "aws"}, {"description": "Asia, Japan - Azure: Japan East", "name": "azure-japaneast", "latitude": 35.68, "longitude": 139.68, "region": "east asia", "provider": "azure"}, {"description": "Asia, Japan - Azure: Japan West", "name": "azure-japanwest", "latitude": 35.68, "longitude": 136.68, "region": "east asia", "provider": "azure"}, {"description": "Asia, Japan - Google Cloud: Osaka", "name": "google-asia-northeast2", "latitude": 34.694, "longitude": 135.502, "region": "east asia", "provider": "google"}, {"description": "Asia, Japan - Google Cloud: Tokyo", "name": "google-asia-northeast1", "latitude": 35.68, "longitude": 139.68, "region": "east asia", "provider": "google"}, {"description": "Asia, Korea - Amazon Web Services: Seoul", "name": "aws-ap-northeast-2", "latitude": 37.57, "longitude": 126.97, "region": "east asia", "provider": "aws"}, {"description": "Asia, Korea - Azure: Korea Central", "name": "azure-korea-central", "latitude": 37.57, "longitude": 126.97, "region": "east asia", "provider": "azure"}, {"description": "Asia, Korea - Azure: Korea South", "name": "azure-korea-south", "latitude": 35.18, "longitude": 129.08, "region": "east asia", "provider": "azure"}, {"description": "Asia, Korea - Google Cloud: Seoul", "name": "google-asia-northeast3", "latitude": 37.57, "longitude": 126.97, "region": "east asia", "provider": "google"}, {"description": "Asia, Singapore - Amazon Web Services: Singapore", "name": "aws-ap-southeast-1", "latitude": 1.3, "longitude": 103.8, "region": "southeast asia", "provider": "aws"}, {"description": "Asia, Singapore - Azure: Southeast Asia", "name": "azure-southeastasia", "latitude": 1.3, "longitude": 103.8, "region": "southeast asia", "provider": "azure"}, {"description": "Asia, Singapore - DigitalOcean: Singapore", "name": "do-sgp", "latitude": 1.3, "longitude": 103.8, "region": "southeast asia", "provider": "do"}, {"description": "Asia, Singapore - Google Cloud: Singapore", "name": "google-asia-southeast1", "latitude": 1.3, "longitude": 103.8, "region": "southeast asia", "provider": "google"}, {"description": "Asia, Singapore - UpCloud: Singapore", "name": "upcloud-sg-sin", "latitude": 1.3, "longitude": 103.8, "region": "southeast asia", "provider": "upcloud"}, {"description": "Asia, Taiwan - Google Cloud: Taiwan", "name": "google-asia-east1", "latitude": 23.98, "longitude": 120.53, "region": "east asia", "provider": "google"}, {"description": "Australia, Canberra - Azure: Australia Central", "name": "azure-australia-central", "latitude": -35.3, "longitude": 149.12, "region": "australia", "provider": "azure"}, {"description": "Australia, New South Wales - Amazon Web Services: Sydney", "name": "aws-ap-southeast-2", "latitude": -33.85, "longitude": 151.2, "region": "australia", "provider": "aws"}, {"description": "Australia, New South Wales - Azure: Australia East", "name": "azure-australiaeast", "latitude": -33.85, "longitude": 151.2, "region": "australia", "provider": "azure"}, {"description": "Australia, New South Wales - Google Cloud: Sydney", "name": "google-australia-southeast1", "latitude": -33.85, "longitude": 151.2, "region": "australia", "provider": "google"}, {"description": "Australia, New South Wales - UpCloud: Sydney", "name": "upcloud-au-syd", "latitude": -33.85, "longitude": 151.2, "region": "australia", "provider": "upcloud"}, {"description": "Australia, Victoria - Azure: Australia Southeast", "name": "azure-australiasoutheast", "latitude": -37.7, "longitude": 145.02, "region": "australia", "provider": "azure"}, {"description": "Australia, Victoria - Google Cloud: Melbourne", "name": "google-australia-southeast2", "latitude": -37.815, "longitude": 144.946, "region": "australia", "provider": "google"}, {"description": "Canada, Ontario - Azure: Canada Central", "name": "azure-canadacentral", "latitude": 45.7, "longitude": -79.4, "region": "north america", "provider": "azure"}, {"description": "Canada, Ontario - DigitalOcean: Toronto", "name": "do-tor", "latitude": 45.7, "longitude": -79.4, "region": "north america", "provider": "do"}, {"description": "Canada, Ontario - Google Cloud: Toronto", "name": "google-northamerica-northeast2", "latitude": 45.7, "longitude": -79.4, "region": "north america", "provider": "google"}, {"description": "Canada, Quebec - Amazon Web Services: Canada Central", "name": "aws-ca-central-1", "latitude": 45.3, "longitude": -73.34, "region": "north america", "provider": "aws"}, {"description": "Canada, Quebec - Azure: Canada East", "name": "azure-canadaeast", "latitude": 50.7, "longitude": -69.4, "region": "north america", "provider": "azure"}, {"description": "Canada, Quebec - Google Cloud: Montr\u00e9al", "name": "google-northamerica-northeast1", "latitude": 45.5, "longitude": -73.57, "region": "north america", "provider": "google"}, {"description": "Europe, Belgium - Google Cloud: Belgium", "name": "google-europe-west1", "latitude": 50.45, "longitude": 3.82, "region": "europe", "provider": "google"}, {"description": "Europe, England - Amazon Web Services: London", "name": "aws-eu-west-2", "latitude": 51.5, "longitude": 0.12, "region": "europe", "provider": "aws"}, {"description": "Europe, England - Azure: UK South", "name": "azure-uksouth", "latitude": 52.5, "longitude": 0.12, "region": "europe", "provider": "azure"}, {"description": "Europe, England - DigitalOcean: London", "name": "do-lon", "latitude": 51.5, "longitude": 0.12, "region": "europe", "provider": "do"}, {"description": "Europe, England - Google Cloud: London", "name": "google-europe-west2", "latitude": 51.5, "longitude": 0.12, "region": "europe", "provider": "google"}, {"description": "Europe, Finland - Google Cloud: Finland", "name": "google-europe-north1", "latitude": 60.5693, "longitude": 27.1878, "region": "europe", "provider": "google"}, {"description": "Europe, Finland - UpCloud: Helsinki", "name": "upcloud-fi-hel", "latitude": 60.17, "longitude": 24.97, "region": "europe", "provider": "upcloud"}, {"description": "Europe, France - Amazon Web Services: Paris", "name": "aws-eu-west-3", "latitude": 48.85, "longitude": 2.35, "region": "europe", "provider": "aws"}, {"description": "Europe, France - Azure: France Central", "name": "azure-france-central", "latitude": 48.86, "longitude": 2.35, "region": "europe", "provider": "azure"}, {"description": "Europe, Germany - Amazon Web Services: Frankfurt", "name": "aws-eu-central-1", "latitude": 50.12, "longitude": 8.68, "region": "europe", "provider": "aws"}, {"description": "Europe, Germany - Azure: Germany North", "name": "azure-germany-north", "latitude": 53.0736, "longitude": 8.8064, "region": "europe", "provider": "azure"}, {"description": "Europe, Germany - Azure: Germany West Central", "name": "azure-germany-westcentral", "latitude": 50.1166, "longitude": 8.6833, "region": "europe", "provider": "azure"}, {"description": "Europe, Germany - DigitalOcean: Frankfurt", "name": "do-fra", "latitude": 50.12, "longitude": 8.68, "region": "europe", "provider": "do"}, {"description": "Europe, Germany - Google Cloud: Frankfurt", "name": "google-europe-west3", "latitude": 50.12, "longitude": 8.68, "region": "europe", "provider": "google"}, {"description": "Europe, Germany - UpCloud: Frankfurt", "name": "upcloud-de-fra", "latitude": 50.12, "longitude": 8.68, "region": "europe", "provider": "upcloud"}, {"description": "Europe, Ireland - Amazon Web Services: Ireland", "name": "aws-eu-west-1", "latitude": 53.33, "longitude": -6.25, "region": "europe", "provider": "aws"}, {"description": "Europe, Ireland - Azure: North Europe", "name": "azure-northeurope", "latitude": 53.33, "longitude": -6.25, "region": "europe", "provider": "azure"}, {"description": "Europe, Italy - Amazon Web Services: Milan", "name": "aws-eu-south-1", "latitude": 45.46, "longitude": 9.19, "region": "europe", "provider": "aws"}, {"description": "Europe, Netherlands - Azure: West Europe", "name": "azure-westeurope", "latitude": 52.37, "longitude": 4.9, "region": "europe", "provider": "azure"}, {"description": "Europe, Netherlands - DigitalOcean: Amsterdam", "name": "do-ams", "latitude": 52.37, "longitude": 4.9, "region": "europe", "provider": "do"}, {"description": "Europe, Netherlands - Google Cloud: Netherlands", "name": "google-europe-west4", "latitude": 53.44, "longitude": 6.84, "region": "europe", "provider": "google"}, {"description": "Europe, Netherlands - UpCloud: Amsterdam", "name": "upcloud-nl-ams", "latitude": 52.37, "longitude": 4.9, "region": "europe", "provider": "upcloud"}, {"description": "Europe, Norway - Azure: Norway East", "name": "azure-norway-east", "latitude": 59.91, "longitude": 10.98, "region": "europe", "provider": "azure"}, {"description": "Europe, Norway - Azure: Norway West", "name": "azure-norway-west", "latitude": 58.97, "longitude": 5.73, "region": "europe", "provider": "azure"}, {"description": "Europe, Poland - Google Cloud: Warsaw", "name": "google-europe-central2", "latitude": 52.237, "longitude": 21.018, "region": "europe", "provider": "google"}, {"description": "Europe, Poland - UpCloud: Warsaw", "name": "upcloud-pl-waw", "latitude": 52.24, "longitude": 21.02, "region": "europe", "provider": "upcloud"}, {"description": "Europe, Spain - UpCloud: Madrid", "name": "upcloud-es-mad", "latitude": 40.42, "longitude": -3.72, "region": "europe", "provider": "upcloud"}, {"description": "Europe, Sweden - Amazon Web Services: Stockholm", "name": "aws-eu-north-1", "latitude": 59.3293, "longitude": 18.0686, "region": "europe", "provider": "aws"}, {"description": "Europe, Switzerland - Azure: Switzerland North", "name": "azure-switzerland-north", "latitude": 47.37, "longitude": 8.54, "region": "europe", "provider": "azure"}, {"description": "Europe, Switzerland - Google Cloud: Z\u00fcrich", "name": "google-europe-west6", "latitude": 47.378, "longitude": 8.539, "region": "europe", "provider": "google"}, {"description": "Europe, Wales - Azure: UK West", "name": "azure-ukwest", "latitude": 48.5, "longitude": 0.12, "region": "europe", "provider": "azure"}, {"description": "Middle East, United Arab Emirates - Azure: Middle East", "name": "azure-uae-north", "latitude": 25.26, "longitude": 55.31, "region": "middle east", "provider": "azure"}, {"description": "South America, Brazil - Amazon Web Services: S\u00e3o Paulo", "name": "aws-sa-east-1", "latitude": -23.55, "longitude": -46.63, "region": "south america", "provider": "aws"}, {"description": "South America, Brazil - Azure: Brazil South", "name": "azure-brazilsouth", "latitude": -23.55, "longitude": -46.63, "region": "south america", "provider": "azure"}, {"description": "South America, Brazil - Google Cloud: Sao Paulo", "name": "google-southamerica-east1", "latitude": -23.53, "longitude": -46.625, "region": "south america", "provider": "google"}, {"description": "United States, California - Amazon Web Services: N. California", "name": "aws-us-west-1", "latitude": 37.78, "longitude": -122.42, "region": "north america", "provider": "aws"}, {"description": "United States, California - Azure: West US", "name": "azure-westus", "latitude": 37.78, "longitude": -122.42, "region": "north america", "provider": "azure"}, {"description": "United States, California - DigitalOcean: San Francisco", "name": "do-sfo", "latitude": 37.78, "longitude": -122.42, "region": "north america", "provider": "do"}, {"description": "United States, California - Google Cloud: Los Angeles", "name": "google-us-west2", "latitude": 34.05, "longitude": -118.24, "region": "north america", "provider": "google"}, {"description": "United States, California - UpCloud: San Jose", "name": "upcloud-us-sjo", "latitude": 37.3, "longitude": -121.96, "region": "north america", "provider": "upcloud"}, {"description": "United States, Illinois - Azure: North Central US", "name": "azure-northcentralus", "latitude": 41.83, "longitude": -87.85, "region": "north america", "provider": "azure"}, {"description": "United States, Illinois - UpCloud: Chicago", "name": "upcloud-us-chi", "latitude": 41.83, "longitude": -87.85, "region": "north america", "provider": "upcloud"}, {"description": "United States, Iowa - Azure: Central US", "name": "azure-centralus", "latitude": 41.25, "longitude": -95.87, "region": "north america", "provider": "azure"}, {"description": "United States, Iowa - Google Cloud: Iowa", "name": "google-us-central1", "latitude": 41.25, "longitude": -95.87, "region": "north america", "provider": "google"}, {"description": "United States, Nevada - Google Cloud: Las Vegas", "name": "google-us-west4", "latitude": 36.11, "longitude": -115.17, "region": "north america", "provider": "google"}, {"description": "United States, New York - DigitalOcean: New York", "name": "do-nyc", "latitude": 40.7, "longitude": -70.0, "region": "north america", "provider": "do"}, {"description": "United States, New York - UpCloud: New York", "name": "upcloud-us-nyc", "latitude": 40.73, "longitude": -73.94, "region": "north america", "provider": "upcloud"}, {"description": "United States, Ohio - Amazon Web Services: Ohio", "name": "aws-us-east-2", "latitude": 40.24, "longitude": -82.88, "region": "north america", "provider": "aws"}, {"description": "United States, Oregon - Amazon Web Services: Oregon", "name": "aws-us-west-2", "latitude": 45.52, "longitude": -122.67, "region": "north america", "provider": "aws"}, {"description": "United States, Oregon - Google Cloud: Oregon", "name": "google-us-west1", "latitude": 45.52, "longitude": -122.67, "region": "north america", "provider": "google"}, {"description": "United States, South Carolina - Google Cloud: South Carolina", "name": "google-us-east1", "latitude": 33.0, "longitude": -80.03, "region": "north america", "provider": "google"}, {"description": "United States, Texas - Azure: South Central US", "name": "azure-southcentralus", "latitude": 33.0, "longitude": -98.5, "region": "north america", "provider": "azure"}, {"description": "United States, Utah - Google Cloud: Salt Lake City", "name": "google-us-west3", "latitude": 40.76, "longitude": -111.88, "region": "north america", "provider": "google"}, {"description": "United States, Virginia - Amazon Web Services: N. Virginia", "name": "aws-us-east-1", "latitude": 38.7, "longitude": -78.15, "region": "north america", "provider": "aws"}, {"description": "United States, Virginia - Azure: East US", "name": "azure-eastus", "latitude": 38.7, "longitude": -78.15, "region": "north america", "provider": "azure"}, {"description": "United States, Virginia - Azure: East US 2", "name": "azure-eastus2", "latitude": 38.7, "longitude": -78.15, "region": "north america", "provider": "azure"}, {"description": "United States, Virginia - Google Cloud: Northern Virginia", "name": "google-us-east4", "latitude": 38.7, "longitude": -78.15, "region": "north america", "provider": "google"}, {"description": "United States, Washington - Azure: West US 2", "name": "azure-westus2", "latitude": 45.52, "longitude": -122.67, "region": "north america", "provider": "azure"}, {"description": "United States, Wyoming - Azure: West Central US", "name": "azure-westcentralus", "latitude": 45.52, "longitude": -110.67, "region": "north america", "provider": "azure"}]